{
  "上海": {
    "display_name": "上海市, 中国",
    "lat": 31.2312707,
    "lng": 121.4700152,
    "province": "上海市",
    "status": "ok"
  },
  "上虞": {
    "display_name": "上虞区, 绍兴市, 浙江省, 中国",
    "lat": 30.0331,
    "lng": 120.8676,
    "province": "浙江省",
    "status": "override"
  },
  "东京": {
    "display_name": "东京都/東京都, 日本",
    "lat": 35.6768601,
    "lng": 139.7638947,
    "province": "日本",
    "status": "ok"
  },
  "丽水": {
    "display_name": "丽水市, 浙江省, 中国",
    "lat": 28.4704064,
    "lng": 119.9184297,
    "province": "浙江省",
    "status": "ok"
  },
  "云南": {
    "display_name": "云南省, 中国",
    "lat": 25.0,
    "lng": 102.0,
    "province": "云南省",
    "status": "ok"
  },
  "伦敦": {
    "display_name": "大倫敦;大伦敦, 英格兰;英格蘭, 英国;英國",
    "lat": 51.5074456,
    "lng": -0.1277653,
    "province": "英国",
    "status": "ok"
  },
  "内蒙古": {
    "display_name": "内蒙古自治区, 中国",
    "lat": 43.2443242,
    "lng": 114.3251664,
    "province": "内蒙古自治区",
    "status": "ok"
  },
  "北京": {
    "display_name": "北京市, 中国",
    "lat": 39.9057136,
    "lng": 116.3912972,
    "province": "北京市",
    "status": "ok"
  },
  "南通": {
    "display_name": "南通市, 江苏省, 中国",
    "lat": 31.9827896,
    "lng": 120.8904588,
    "province": "江苏省",
    "status": "ok"
  },
  "厦门": {
    "display_name": "厦门市, 福建省, 中国",
    "lat": 24.5438732,
    "lng": 118.0768065,
    "province": "福建省",
    "status": "ok"
  },
  "台州": {
    "display_name": "台州市, 浙江省, 中国",
    "lat": 28.6581723,
    "lng": 121.4163876,
    "province": "浙江省",
    "status": "ok"
  },
  "呼和浩特": {
    "display_name": "呼和浩特市, 内蒙古自治区, 中国",
    "lat": 40.8184528,
    "lng": 111.6601939,
    "province": "内蒙古自治区",
    "status": "ok"
  },
  "哈尔滨": {
    "display_name": "哈尔滨市, 香坊区, 黑龙江省, 中国",
    "lat": 45.7593633,
    "lng": 126.6276177,
    "province": "黑龙江省",
    "status": "ok"
  },
  "嘉兴": {
    "display_name": "嘉兴市, 浙江省, 中国",
    "lat": 30.7474425,
    "lng": 120.7510971,
    "province": "浙江省",
    "status": "ok"
  },
  "四川": {
    "display_name": "四川省, 中国",
    "lat": 30.5000001,
    "lng": 102.4999999,
    "province": "四川省",
    "status": "ok"
  },
  "大理": {
    "display_name": "大理白族自治州, 云南省, 中国",
    "lat": 25.6074778,
    "lng": 100.2651597,
    "province": "云南省",
    "status": "ok"
  },
  "大连": {
    "display_name": "大连市, 辽宁省, 中国",
    "lat": 39.740278,
    "lng": 122.255833,
    "province": "辽宁省",
    "status": "ok"
  },
  "太原": {
    "display_name": "太原, 迎泽大街, 文庙街道, 迎泽区, 太原市, 山西省, 030009, 中国",
    "lat": 37.8600375,
    "lng": 112.5818317,
    "province": "山西省",
    "status": "ok"
  },
  "宁波": {
    "display_name": "宁波市, 浙江省, 中国",
    "lat": 29.8622194,
    "lng": 121.6203873,
    "province": "浙江省",
    "status": "ok"
  },
  "安吉": {
    "display_name": "安吉县, 湖州市, 浙江省, 中国",
    "lat": 30.6378,
    "lng": 119.6802,
    "province": "浙江省",
    "status": "override"
  },
  "安徽": {
    "display_name": "安徽省, 中国",
    "lat": 32.0,
    "lng": 117.0,
    "province": "安徽省",
    "status": "ok"
  },
  "安顺": {
    "display_name": "安顺市, 贵州省, 561000, 中国",
    "lat": 26.2545887,
    "lng": 105.9436995,
    "province": "贵州省",
    "status": "ok"
  },
  "宜兴": {
    "display_name": "宜兴市, 无锡市, 江苏省, 214200, 中国",
    "lat": 31.3495972,
    "lng": 119.817253,
    "province": "江苏省",
    "status": "ok"
  },
  "巴黎": {
    "display_name": "巴黎, 法兰西岛大区 / 法蘭西島大區, 法國本土/法国本土, 法国;法國",
    "lat": 48.8534951,
    "lng": 2.3483915,
    "province": "法国",
    "status": "ok"
  },
  "平遥": {
    "display_name": "平遥县, 晋中市, 山西省, 031100, 中国",
    "lat": 37.1393929,
    "lng": 112.2849966,
    "province": "山西省",
    "status": "ok"
  },
  "广东": {
    "display_name": "广东省, 中国",
    "lat": 23.1357694,
    "lng": 113.1982688,
    "province": "广东省",
    "status": "ok"
  },
  "广州": {
    "display_name": "广州市, 广东省, 中国",
    "lat": 23.1288454,
    "lng": 113.2590064,
    "province": "广东省",
    "status": "ok"
  },
  "德清": {
    "display_name": "德清县, 湖州市, 浙江省, 中国",
    "lat": 30.542973,
    "lng": 119.9724332,
    "province": "浙江省",
    "status": "ok"
  },
  "慈溪": {
    "display_name": "慈溪市, 宁波市, 浙江省, 中国",
    "lat": 30.1730437,
    "lng": 121.2623259,
    "province": "浙江省",
    "status": "ok"
  },
  "成都": {
    "display_name": "成都市, 四川省, 中国",
    "lat": 30.659867,
    "lng": 104.063315,
    "province": "四川省",
    "status": "ok"
  },
  "新疆": {
    "display_name": "新疆维吾尔自治区, 中国",
    "lat": 42.4804953,
    "lng": 85.4633464,
    "province": "新疆维吾尔自治区",
    "status": "ok"
  },
  "无锡": {
    "display_name": "无锡市, 江苏省, 214000, 中国",
    "lat": 31.5776626,
    "lng": 120.2952752,
    "province": "江苏省",
    "status": "ok"
  },
  "曼谷": {
    "display_name": "曼谷, 泰国;泰國",
    "lat": 13.7524938,
    "lng": 100.4935089,
    "province": "泰国",
    "status": "ok"
  },
  "杭州": {
    "display_name": "杭州市, 浙江省, 中国",
    "lat": 30.2489634,
    "lng": 120.2052342,
    "province": "浙江省",
    "status": "ok"
  },
  "柏林": {
    "display_name": "柏林, 德国;德國",
    "lat": 52.5173885,
    "lng": 13.3951309,
    "province": "德国",
    "status": "ok"
  },
  "武汉": {
    "display_name": "武汉市, 湖北省, 中国",
    "lat": 30.578891,
    "lng": 114.2921197,
    "province": "湖北省",
    "status": "ok"
  },
  "洛杉矶": {
    "display_name": "洛杉矶;洛杉磯, Los Angeles County, 加利福尼亚州;加利福尼亞州, 美国;美國",
    "lat": 34.0536909,
    "lng": -118.242766,
    "province": "美国",
    "status": "ok"
  },
  "深圳": {
    "display_name": "深圳市, 广东省, 中国",
    "lat": 22.5445741,
    "lng": 114.0545429,
    "province": "广东省",
    "status": "ok"
  },
  "澳门": {
    "display_name": "澳門, 中国",
    "lat": 22.1757605,
    "lng": 113.5514142,
    "province": "澳門",
    "status": "ok"
  },
  "甘孜": {
    "display_name": "甘孜藏族自治州, 四川省, 中国",
    "lat": 30.0521496,
    "lng": 101.9609839,
    "province": "四川省",
    "status": "ok"
  },
  "秦皇岛": {
    "display_name": "秦皇岛市, 河北省, 中国",
    "lat": 39.9367525,
    "lng": 119.5942213,
    "province": "河北省",
    "status": "ok"
  },
  "箱根": {
    "display_name": "箱根, 箱根町, 足柄下郡, 神奈川縣, 250-0398, 日本",
    "lat": 35.189737,
    "lng": 139.037778,
    "province": "日本",
    "status": "ok"
  },
  "绍兴": {
    "display_name": "绍兴市, 浙江省, 中国",
    "lat": 29.9992425,
    "lng": 120.576854,
    "province": "浙江省",
    "status": "ok"
  },
  "罗马": {
    "display_name": "罗马, Roma Capitale, 拉齐奥大区, 意大利;意大利",
    "lat": 41.8933203,
    "lng": 12.4829321,
    "province": "意大利",
    "status": "ok"
  },
  "苏州": {
    "display_name": "苏州市, 江苏省, 中国",
    "lat": 31.311123,
    "lng": 120.6212881,
    "province": "江苏省",
    "status": "ok"
  },
  "西安": {
    "display_name": "西安市, 陕西省, 中国",
    "lat": 34.261004,
    "lng": 108.9423363,
    "province": "陕西省",
    "status": "ok"
  },
  "贵州": {
    "display_name": "贵州省, 中国",
    "lat": 27.0,
    "lng": 107.0,
    "province": "贵州省",
    "status": "ok"
  },
  "贵阳": {
    "display_name": "贵阳市, 贵州省, 中国",
    "lat": 26.5878031,
    "lng": 106.7086936,
    "province": "贵州省",
    "status": "ok"
  },
  "重庆": {
    "display_name": "重庆市, 中国",
    "lat": 30.05518,
    "lng": 107.8748712,
    "province": "重庆市",
    "status": "ok"
  },
  "铜仁": {
    "display_name": "铜仁市, 贵州省, 558000, 中国",
    "lat": 27.952938,
    "lng": 108.584018,
    "province": "贵州省",
    "status": "ok"
  },
  "银川": {
    "display_name": "银川, 地下通道, 西花园街道, 西夏区, 银川市, 宁夏回族自治区, 750021, 中国",
    "lat": 38.4916812,
    "lng": 106.1686188,
    "province": "宁夏回族自治区",
    "status": "ok"
  },
  "长沙": {
    "display_name": "长沙市, 湖南省, 中国",
    "lat": 28.1450774,
    "lng": 113.2384362,
    "province": "湖南省",
    "status": "ok"
  },
  "阿姆斯特丹": {
    "display_name": "阿姆斯特丹, Amsterdam, North Holland, 荷兰 / 荷蘭",
    "lat": 52.3730796,
    "lng": 4.8924534,
    "province": "荷兰 / 荷蘭",
    "status": "ok"
  },
  "霞浦": {
    "display_name": "霞浦县, 宁德市, 福建省, 中国",
    "lat": 26.8317875,
    "lng": 119.9856733,
    "province": "福建省",
    "status": "ok"
  },
  "黔东南": {
    "display_name": "黔东南苗族侗族自治州, 贵州省, 中国",
    "lat": 26.5870883,
    "lng": 107.978748,
    "province": "贵州省",
    "status": "ok"
  }
}